,이름,주소,브랜드,휘발유 가격,경유 가격,셀프,세차장,충전소,경정비,편의점,24시간 운영,구,위도,경도
0,(주)보성 세곡주유소,서울 강남구  헌릉로 731 (세곡동),SK에너지,1629,1539,Y,Y,N,N,N,N,강남구,37.4671565,127.1187081
1,HD현대오일뱅크㈜직영 산성셀프주유소,서울 강남구 헌릉로 730,HD현대오일뱅크,1655,1565,Y,Y,N,N,N,N,강남구,37.4665675,127.1190803
2,방죽주유소,서울 강남구 밤고개로 215 (율현동),GS칼텍스,1687,1589,Y,Y,N,N,N,N,강남구,37.4749926,127.1068866
3,오일프러스 셀프,서울 강남구 남부순환로 2651 (도곡동),SK에너지,1688,1595,Y,Y,N,Y,N,Y,강남구,37.485839,127.0396721
4,(주)중앙에너비스 수서지점,서울 강남구 광평로 202 (수서동),SK에너지,1697,1597,Y,Y,N,N,N,N,강남구,37.4841053,127.0950401
5,자곡셀프주유소,서울 강남구 밤고개로 120 (자곡동),SK에너지,1698,1597,Y,Y,N,N,N,N,강남구,37.4834002,127.1040458
6,일원주유소,서울 강남구 양재대로55길 3 (일원동),S-OIL,1698,1597,Y,N,N,N,N,N,강남구,37.4942501,127.0941997
7,HD현대오일뱅크㈜직영 도곡셀프주유소,서울 강남구  남부순환로 2718 (도곡2동),HD현대오일뱅크,1704,1604,Y,Y,N,Y,N,N,강남구,37.4854623,127.0432181
8,극동유화㈜ 개나리주유소,서울 강남구 언주로 423 (역삼동),S-OIL,1708,1595,Y,Y,N,Y,N,Y,강남구,37.5000776,127.0385419
9,HD현대오일뱅크㈜직영 유진주유소,서울 강남구 논현로 152 (도곡동),HD현대오일뱅크,1714,1619,N,Y,N,Y,N,N,강남구,37.4874316,127.0399976
10,삼성동주유소,서울 강남구 테헤란로 619 (삼성동),HD현대오일뱅크,1725,1625,Y,Y,N,N,N,N,강남구,37.5098576,127.0651101
11,SK서광주유소,서울 강남구 역삼로 142,SK에너지,1735,1615,Y,Y,N,Y,N,Y,강남구,37.4943424,127.0350915
12,대교셀프주유소,서울 강남구 강남대로 640 (신사동),SK에너지,1740,1680,Y,N,N,N,N,Y,강남구,37.5281292,127.0355537
13,SK에너지㈜ 진달래주유소,서울 강남구 도곡로 208,SK에너지,1749,1645,N,Y,N,N,N,N,강남구,37.492295,127.0418598
14,(주)선진도곡주유소,서울 강남구 도곡로 162 (도곡동),S-OIL,1759,1659,N,Y,N,Y,N,N,강남구,37.4878254,127.0466876
15,지에스칼텍스㈜에너지플러스허브GS타워,서울 강남구 논현로 516 (역삼동),GS칼텍스,1784,1744,Y,N,N,Y,N,Y,강남구,37.50270829999999,127.0363956
16,대동석유 압구정주유소,서울 강남구 언주로 842 (신사동),SK에너지,1797,1737,Y,Y,N,N,N,Y,강남구,37.5253431,127.0338242
17,(유)동하석유 힐탑셀프주유소,서울 강남구 논현로 640,SK에너지,1797,1727,Y,Y,N,N,N,Y,강남구,37.5106887,127.0325689
18,세진에너지(주) 개포주유소,서울 강남구 양재대로 339,GS칼텍스,1888,1728,Y,Y,N,N,N,N,강남구,37.4722409,127.0515134
19,지에스칼텍스㈜ 삼성로주유소,서울 강남구 삼성로 563 (삼성동),GS칼텍스,1939,1899,Y,Y,N,N,N,Y,강남구,37.51397499999999,127.0561274
20,지에스칼텍스㈜ 은마주유소,서울 강남구 영동대로 235,GS칼텍스,1954,1919,N,Y,N,Y,N,Y,강남구,37.5000721,127.0672848
21,HD현대오일뱅크㈜직영 신사현대주유소,서울 강남구 도산대로 163 (신사동),HD현대오일뱅크,1963,1899,N,Y,N,N,N,N,강남구,37.5195205,127.0263171
22,대성석유(주)동호주유소,서울 강남구 봉은사로113길 51,GS칼텍스,2049,1942,N,Y,N,N,N,N,강남구,37.518486,127.0646655
23,지에스칼텍스(주)학여울주유소,서울 강남구 남부순환로 3170 (일원2동),GS칼텍스,2089,2015,N,Y,N,N,N,N,강남구,37.4946762,127.0778305
24,명품주유소,서울 강남구 도곡로 249 (역삼동),S-OIL,2178,2067,Y,Y,N,N,N,Y,강남구,37.4942704,127.0455093
25,HD현대오일뱅크㈜직영 한양주유소,서울 강남구 압구정로 302 (신사동),HD현대오일뱅크,2188,2111,N,Y,N,N,N,N,강남구,37.5288681,127.0341046
26,(주)소모 쎈트럴주유소,서울 강남구 삼성로 335,GS칼텍스,2195,2086,N,Y,N,N,N,N,강남구,37.5014209,127.0591408
27,대청주유소,서울 강남구 개포로 654 (일원동),SK에너지,2195,2086,N,Y,N,N,N,N,강남구,37.49247370000001,127.085679
28,㈜새서울석유 새서울주유소,서울 강남구 압구정로 154,HD현대오일뱅크,2198,1998,N,Y,N,N,N,Y,강남구,37.525835,127.0265422
29,SK논현주유소,서울 강남구 논현로 747 (논현동),SK에너지,2363,2198,N,Y,N,Y,N,Y,강남구,37.5186368,127.028238
30,(주)제이제이네트웍스 제이제이주유소,서울 강남구 언주로 716,HD현대오일뱅크,2490,2380,N,Y,N,N,N,Y,강남구,37.5176472,127.0357349
31,(주)만정에너지 삼보주유소,서울 강남구 봉은사로 433 (삼성동),GS칼텍스,2598,2560,N,Y,N,N,N,N,강남구,37.5115207,127.0471716
32,재건에너지 재정제2주유소 고속셀프지점,서울특별시 강동구  천호대로 1246 (둔촌제2동),HD현대오일뱅크,1629,1529,Y,Y,N,N,N,N,강동구,37.5365133,127.1493588
33,구천면주유소,서울 강동구 구천면로 357 (암사동),HD현대오일뱅크,1654,1565,N,N,N,N,N,N,강동구,37.5504598,127.1382316
34,방아다리주유소,서울 강동구 동남로 811 (명일동),SK에너지,1665,1575,Y,Y,N,N,N,N,강동구,37.5490445,127.1508229
35,(주)소모 신월주유소,서울 강동구 양재대로 1323 (성내동),GS칼텍스,1686,1588,Y,Y,N,N,N,N,강동구,37.5304933,127.128992
36,(주)삼표에너지 고덕주유소,서울 강동구 고덕로 39 (암사동),GS칼텍스,1695,1595,Y,Y,N,N,Y,N,강동구,37.555049,127.1297929
37,대성석유(주)길동주유소,서울 강동구 천호대로 1168,GS칼텍스,1696,1598,N,Y,N,N,N,N,강동구,37.5334229,127.1411725
38,sk해뜨는주유소,서울 강동구  상일로 132 (강일동),SK에너지,1699,1609,Y,Y,N,Y,N,N,강동구,37.5545085,127.1724154
39,주)지유에너지직영 오렌지주유소,서울 강동구 성안로 102 (성내동),SK에너지,1734,1634,N,Y,N,Y,N,N,강동구,37.532314,127.1331781
40,(주)퍼스트오일 코알라주유소,서울특별시 강동구  올림픽로 556 (성내동),S-OIL,1750,1650,Y,Y,N,N,N,N,강동구,37.5293808,127.1224408
41,(주)소모 성내주유소,서울 강동구 올림픽로 578 (성내동),GS칼텍스,1768,1668,Y,Y,N,Y,N,N,강동구,37.5313782,127.1273286
42,지에스칼텍스㈜ 동서울주유소,서울 강동구 천호대로 1456 (상일동),GS칼텍스,1799,1729,Y,Y,N,N,N,N,강동구,37.5511028,127.1696401
43,천호현대주유소,서울 강동구 천중로 67 (천호동),HD현대오일뱅크,1843,1743,N,Y,N,Y,N,N,강동구,37.5451331,127.129473
44,광성주유소,서울 강동구 올림픽로 673 (천호동),S-OIL,1968,1858,N,Y,N,Y,N,Y,강동구,37.5416117,127.1241731
45,북서울고속주유소,서울 강북구 삼양로 410 (수유동),SK에너지,1590,1495,Y,N,N,N,N,Y,강북구,37.6401448,127.017205
46,(주)석산에너지,서울 강북구 삼양로 316 (수유동),HD현대오일뱅크,1590,1495,Y,N,N,N,N,N,강북구,37.6316335,127.0179394
47,수유동주유소,서울 강북구 도봉로 395 (수유동),GS칼텍스,1590,1495,Y,Y,N,N,N,Y,강북구,37.6421556,127.0295862
48,(주)서울에너지 시민주유소,서울 강북구 인수봉로 185 (수유동),HD현대오일뱅크,1590,1495,Y,N,N,N,N,N,강북구,37.6362022,127.012822
49,SK에너지(주) 매일주유소,서울 강북구 삼양로 217 (미아동),SK에너지,1599,1514,Y,Y,N,N,Y,N,강북구,37.6227977,127.0191356
50,덕릉로주유소,서울 강북구 덕릉로 158 (번동),S-OIL,1605,1505,Y,Y,N,N,N,N,강북구,37.6349756,127.0313182
51,씨앤에스유통㈜ 미아셀프주유소,서울 강북구 도봉로 200 (미아동),S-OIL,1625,1525,Y,Y,N,N,N,N,강북구,37.6265292,127.0265002
52,㈜지에스이앤알 미아주유소,서울 강북구 도봉로 122 (미아동),GS칼텍스,1625,1525,Y,Y,N,N,N,N,강북구,37.6199964,127.0290304
53,대성석유(주)신광주유소,서울 강북구 삼양로 484,GS칼텍스,1629,1539,N,Y,N,Y,N,N,강북구,37.6464088,127.0153285
54,HD현대오일뱅크㈜직영 번동셀프주유소,서울 강북구 한천로 963 (번동),HD현대오일뱅크,1642,1552,Y,Y,N,Y,N,Y,강북구,37.6355872,127.0330493
55,세원주유소,서울 강북구 한천로 918 (번동),SK에너지,1648,1548,Y,Y,N,N,N,N,강북구,37.6342596,127.037732
56,에덴주유소,서울 강북구 월계로 195 (번동),SK에너지,1665,1565,Y,Y,N,Y,N,N,강북구,37.6216958,127.0455344
57,이케이에너지(주) 강서주유소,서울 강서구 화곡로 273 (화곡동),HD현대오일뱅크,1573,1473,Y,Y,N,Y,N,N,강서구,37.549163,126.8469964
58,화곡역주유소,서울 강서구 강서로 154 (화곡동),알뜰주유소,1573,1473,Y,N,N,N,N,Y,강서구,37.5407186,126.8415303
59,강서오곡셀프주유소,서울 강서구 벌말로 254 (오곡동),SK에너지,1587,1493,Y,Y,N,N,N,Y,강서구,37.5539622,126.7684275
60,유턴주유소,서울 강서구 남부순환로 57,알뜰주유소,1599,1499,Y,N,N,N,N,N,강서구,37.5504901,126.8164504
61,(주)타이거오일 방화주유소,서울 강서구 방화동로 58-2 (방화동),SK에너지,1603,1513,Y,N,N,N,N,N,강서구,37.5656274,126.8124082
62,행촌에너지 공항주유소,서울 강서구 개화동로 420 (개화동),HD현대오일뱅크,1614,1519,Y,Y,N,Y,Y,Y,강서구,37.574611,126.8023029
63,스카이주유소,서울 강서구 개화동로 457 (방화동),S-OIL,1614,1519,Y,Y,N,N,Y,Y,강서구,37.5714858,126.8043806
64,지에스칼텍스㈜ 경인고속주유소,서울 강서구 국회대로 225 (화곡동),GS칼텍스,1619,1519,Y,Y,Y,Y,N,Y,강서구,37.5296209,126.859797
65,뉴신정주유소,서울 강서구 곰달래로 207 (화곡동),알뜰주유소,1619,1519,N,N,N,Y,Y,N,강서구,37.5315796,126.8560524
66,목화주유소,서울 강서구 국회대로 251 (화곡동),알뜰주유소,1619,1519,Y,Y,N,N,N,N,강서구,37.5300403,126.8629825
67,KH에너지(주)직영 KH외발산주유소,서울 강서구 방화대로 30,SK에너지,1635,1535,Y,Y,Y,Y,Y,N,강서구,37.5434208,126.816863
68,현대오일뱅크 등촌주유소,서울 강서구 등촌로 189 (등촌동),HD현대오일뱅크,1636,1546,N,Y,N,N,N,N,강서구,37.546808,126.8625545
69,강서열린주유소,서울 강서구 등촌로 213 (등촌동),GS칼텍스,1638,1548,N,Y,N,N,N,N,강서구,37.54871199999999,126.8630628
70,(주)한진 김포공항주유소,서울 강서구 하늘길 259,S-OIL,1650,1560,Y,Y,N,N,N,N,강서구,37.5507763,126.8155549
71,개화주유소,서울 강서구 양천로 57,SK에너지,1657,1557,Y,Y,N,N,N,N,강서구,37.5735014,126.8100943
72,하이웨이주유소,서울특별시 강서구 공항대로 432(화곡동),S-OIL,1657,1574,Y,Y,N,N,Y,Y,강서구,37.5546677,126.8548053
73,대성석유(주) 관문주유소,서울 강서구 공항대로 314,GS칼텍스,1658,1578,N,Y,N,Y,N,N,강서구,37.5577232,126.8425243
74,오션네트웍스(주) 서울식물원지점,서울 강서구 양천로 300,SK에너지,1658,1578,Y,N,N,N,N,N,강서구,37.5703872,126.8369306
75,화곡현대주유소,서울 강서구 강서로 151 (화곡동),SK에너지,1666,1586,Y,Y,N,N,N,Y,강서구,37.5402614,126.8411983
76,HD현대오일뱅크㈜직영 양화교셀프주유소,서울 강서구 공항대로 653,HD현대오일뱅크,1672,1599,Y,Y,N,N,N,N,강서구,37.5473368,126.8774764
77,우장산주유소,서울 강서구 강서로 292 (내발산동),SK에너지,1675,1598,Y,N,N,N,N,N,강서구,37.5524944,126.8333061
78,대성석유(주)방화대성주유소,서울 강서구 양천로 176,GS칼텍스,1676,1598,Y,Y,N,N,Y,N,강서구,37.5728815,126.8234821
79,대성석유(주) 마곡대성주유소,서울 강서구 강서로 457,GS칼텍스,1676,1598,Y,N,N,N,N,N,강서구,37.5663485,126.8404466
80,신화곡주유소,서울 강서구 국회대로 71,S-OIL,1685,1575,Y,Y,N,N,N,N,강서구,37.5272579,126.8428896
81,세원제1주유소,서울 강서구 양천로 311 (가양동),SK에너지,1688,1628,Y,Y,N,Y,N,N,강서구,37.5678802,126.8510787
82,대성주유소,서울 강서구 강서로 472,GS칼텍스,1698,1618,N,Y,N,Y,N,N,강서구,37.5675028,126.8414186
83,(주)한진 김포공항제2주유소,서울 강서구 하늘길 112,S-OIL,1714,1621,Y,N,N,N,N,N,강서구,37.5567557,126.8084734
84,HD현대오일뱅크㈜직영 가양주유소,서울 강서구  양천로 391 (가양동),HD현대오일뱅크,1714,1624,N,Y,N,N,N,N,강서구,37.5678802,126.8510787
85,SK KH에너지 가양주유소,서울 강서구 강서로 498 (가양동),SK에너지,1714,1624,N,Y,N,Y,Y,Y,강서구,37.5697823,126.8419022
86,박물관주유소,서울 강서구 양천로53길 97 (가양동),GS칼텍스,1758,1678,N,Y,N,Y,Y,N,강서구,37.5657849,126.8451216
87,코리나(주)청룡주유소,서울 강서구 양천로 576,SK에너지,1768,1668,N,Y,N,N,N,N,강서구,37.5567325,126.862765
88,참솔에너지,서울 강서구 벌말로 281 (오곡동),S-OIL,1865,1765,Y,Y,N,N,N,N,강서구,37.5562519,126.7684491
89,염창동주유소,서울 강서구 양천로 720 (염창동),SK에너지,1935,1860,N,Y,N,N,N,N,강서구,37.5491113,126.8757906
90,(주)엠오티이엔지 직영 삼화주유소,서울 관악구 보라매로 41,HD현대오일뱅크,1639,1539,N,N,N,N,N,N,관악구,37.4932018,126.9267366
91,(주)연우에너지 신관주유소,서울 관악구 신림로 290 (신림동),알뜰주유소,1639,1539,Y,Y,N,N,N,N,관악구,37.480413,126.9306665
92,(주)한유에너지행운셀프주유소,서울 관악구 남부순환로 1883 (봉천동),SK에너지,1645,1545,Y,Y,N,N,N,N,관악구,37.4791083,126.9591697
93,대양석유(주)직영 보라매주유소,서울 관악구  보라매로 26 (봉천동),SK에너지,1649,1549,Y,Y,N,N,N,N,관악구,37.4916874,126.9271603
94,서일석유(주)락성주유소,서울 관악구 남부순환로 1920 (봉천동),GS칼텍스,1655,1555,Y,Y,N,Y,N,Y,관악구,37.47717919999999,126.9623883
95,SK에너지(주)직영 대공원주유소,서울 관악구 과천대로 921 (남현동),SK에너지,1665,1555,N,Y,N,Y,Y,N,관악구,37.4728556,126.9821515
96,SK에너지(주) 신봉천,서울 관악구 남부순환로 1880 (봉천동),SK에너지,1665,1555,N,Y,N,N,Y,N,관악구,37.4787572,126.9583432
97,HD현대오일뱅크㈜직영 문성골주유소,서울 관악구 문성로 97 (신림동),HD현대오일뱅크,1684,1569,N,Y,N,N,N,N,관악구,37.4777941,126.9143022
98,유림주유소,서울 관악구 신림로 176 (신림동),S-OIL,1688,1588,N,Y,N,Y,N,Y,관악구,37.4737247,126.93488
99,현대주유소,서울 관악구 난곡로 108 (신림동),HD현대오일뱅크,1689,1569,N,N,N,N,N,N,관악구,37.4649824,126.9196745
100,HD현대오일뱅크㈜직영 관악셀프주유소,서울 관악구 남부순환로 1520 (신림동),HD현대오일뱅크,1699,1579,Y,N,N,N,N,N,관악구,37.4824619,126.9194671
101,관악시몬주유소,서울특별시 관악구 남부순환로 1753 (봉천동),S-OIL,1735,1625,N,Y,N,N,N,N,관악구,37.4823585,126.945101
102,CJ대한통운㈜ 신림주유소,서울 관악구 남부순환로 1515 (신림동),GS칼텍스,1818,1718,N,Y,N,N,N,N,관악구,37.4829496,126.9189553
103,지에스칼텍스㈜ 난곡주유소,서울 관악구 난곡로 206,GS칼텍스,1879,1769,N,N,N,N,N,N,관악구,37.4734098,126.9187931
104,HD현대오일뱅크㈜직영 능동주유소,서울 광진구 천호대로 584 (능동),HD현대오일뱅크,1609,1505,Y,Y,N,Y,N,Y,광진구,37.5555551,127.082455
105,(주)창원CW,서울 광진구 광나루로 460 (화양동),HD현대오일뱅크,1609,1505,Y,Y,N,N,N,N,광진구,37.5451042,127.0804969
106,(주)장수주유소,서울 광진구 동일로 266 (군자동),SK에너지,1615,1517,Y,N,N,Y,N,Y,광진구,37.5549721,127.0715197
107,용마주유소,서울 광진구 용마산로 68 (중곡동),GS칼텍스,1615,1515,N,N,N,N,N,N,광진구,37.5597487,127.0878553
108,대원주유소,서울 광진구 용마산로 122 (중곡동),S-OIL,1625,1525,N,N,N,N,N,N,광진구,37.5645477,127.086996
109,HD현대오일뱅크㈜직영 장호셀프주유소,서울 광진구 자양로 37 (자양동),HD현대오일뱅크,1633,1540,Y,Y,N,Y,N,N,광진구,37.5312783,127.0858325
110,HD현대오일뱅크㈜직영 중원셀프주유소,서울 광진구 동일로 398 (중곡동),HD현대오일뱅크,1633,1534,Y,Y,N,N,N,N,광진구,37.56354400000001,127.0888304
111,HD현대오일뱅크㈜직영 중곡현대주유소,서울 광진구 동일로 435 (중곡동),HD현대오일뱅크,1633,1534,Y,Y,N,N,N,N,광진구,37.56094119999999,127.0957458
112,정해네트웍스(주)일진주유소,서울 광진구 동일로 413 (중곡동),S-OIL,1667,1567,Y,Y,N,N,N,Y,광진구,37.56354400000001,127.0888304
113,삼호주유소,서울 광진구 천호대로 809 (광장동),S-OIL,1697,1627,Y,Y,N,N,N,Y,광진구,37.5456356,127.1037341
114,유니스에너지 자양주유소,서울 광진구 아차산로 298 (자양동),SK에너지,1748,1648,N,Y,N,N,N,N,광진구,37.531692,127.074516
115,강평주유소 ㈜강평텔레콤,서울 광진구 아차산로 616,SK에너지,1848,1747,N,Y,N,N,N,N,광진구,37.5476119,127.1072051
116,서서울고속주유소,서울 구로구 경인로 150 (오류동),SK에너지,1580,1475,Y,Y,N,N,N,Y,구로구,37.49167509999999,126.8428418
117,개봉주유소,서울 구로구 고척로 115 (개봉동),HD현대오일뱅크,1580,1475,Y,Y,N,N,N,N,구로구,37.50193720000001,126.8468175
118,씨앤에스유통(주) 구로드림주유소,서울 구로구 경인로 41 (온수동),S-OIL,1580,1475,Y,Y,N,N,N,N,구로구,37.4903245,126.8256021
119,(주)서울에너지 궁동주유소,서울 구로구 오리로 1299 (궁동),HD현대오일뱅크,1580,1475,Y,N,N,N,N,N,구로구,37.5004389,126.8285296
120,㈜자연에너지 고척주유소,서울 구로구 고척로 199 (고척동),HD현대오일뱅크,1580,1475,Y,Y,N,N,N,N,구로구,37.5051273,126.8554406
121,(주)한미석유구로그린주유소,서울 구로구 구로중앙로 76 (구로동),GS칼텍스,1595,1485,Y,Y,N,Y,N,N,구로구,37.4963064,126.8884444
122,신성주유소,서울 구로구 구로동로 187 (구로제2동),HD현대오일뱅크,1615,1495,Y,Y,N,N,N,N,구로구,37.4951588,126.8823886
123,극동유화(주) 항동주유소,서울 구로구 서해안로 2154 (항동),S-OIL,1629,1509,Y,Y,N,N,N,N,구로구,37.4834391,126.8278279
124,대성산업(주)디큐브주유소,서울 구로구 경인로 650 (신도림동),GS칼텍스,1634,1524,N,N,N,N,N,Y,구로구,37.5078855,126.8870874
125,SK구로주유소,서울 구로구 구일로 94 (구로동),SK에너지,1634,1534,N,Y,N,N,N,N,구로구,37.4936018,126.872189
126,구인주유소,서울 구로구 경인로 558 (구로동),SK에너지,1634,1534,N,Y,N,Y,Y,N,구로구,37.5042779,126.8860944
127,대원셀프주유소,서울 구로구 개봉로 7,HD현대오일뱅크,1635,1535,Y,Y,N,N,N,N,구로구,37.4861643,126.8561585
128,HD현대오일뱅크㈜직영 신구로주유소,서울 구로구 가마산로 293 (구로동),HD현대오일뱅크,1689,1598,N,Y,N,N,N,N,구로구,37.4975223,126.8924841
129,HD현대오일뱅크㈜직영 구로셀프주유소,서울 구로구 시흥대로 531,HD현대오일뱅크,1699,1579,Y,Y,N,Y,N,Y,구로구,37.4810027,126.8992662
130,SK에너지(주)직영 개봉동주유소,서울 구로구 경인로 290 (개봉동),SK에너지,1699,1599,N,Y,N,N,N,N,구로구,37.4863899,126.8567675
131,영진주유소,서울 구로구 구로동로 20 (가리봉동),S-OIL,1759,1659,N,N,N,N,N,N,구로구,37.4836512,126.8869313
132,동아주유소,서울 구로구 도림로 91 (구로동),S-OIL,1898,1598,N,N,N,N,Y,N,구로구,37.4908509,126.8931878
133,구로주유소,서울 구로구 구로동로 137 (구로동),GS칼텍스,2240,2140,N,N,N,N,N,N,구로구,37.49096,126.883648
134,(주)화동유업 화동주유소,서울 금천구 시흥대로 484,SK에너지,1597,1497,Y,Y,N,N,N,N,금천구,37.4767974,126.8991596
135,(주)백운주유소,서울 금천구 시흥대로 282 (독산동),알뜰주유소,1598,1498,Y,N,N,N,N,N,금천구,37.4588745,126.8993441
136,구광주유소,서울 금천구 서부샛길 674 (가산동),S-OIL,1615,1515,N,Y,N,N,N,N,금천구,37.4820373,126.8751711
137,HD현대오일뱅크㈜직영 금천현대셀프주유소,서울 금천구 독산로 147 (시흥동),HD현대오일뱅크,1659,1554,Y,Y,N,N,N,N,금천구,37.460506,126.9045162
138,SK에너지(주) 박미주유소,서울 금천구 시흥대로 39-7 (시흥동),SK에너지,1665,1565,Y,N,N,N,N,N,금천구,37.4371925,126.9024329
139,남서울경복에너지,서울 금천구 독산로 257 (독산동),HD현대오일뱅크,1665,1565,Y,N,N,N,N,N,금천구,37.4698304,126.9023767
140,대득에너지(금천셀프주유소),서울 금천구  시흥대로 81 (시흥동),GS칼텍스,1665,1565,Y,Y,N,N,Y,Y,금천구,37.4412805,126.9029246
141,백산주유소,서울특별시 금천구  시흥대로 174 (시흥동),S-OIL,1675,1565,Y,Y,N,Y,N,N,금천구,37.4496856,126.9029496
142,SK에너지(주) 이가주유소,서울 금천구 시흥대로 441,SK에너지,1675,1565,N,Y,N,Y,N,N,금천구,37.4730289,126.8979341
143,지에스칼텍스(주)일신주유소,서울 금천구 시흥대로 118,GS칼텍스,1685,1585,Y,Y,N,N,N,N,금천구,37.4444739,126.9042657
144,현대오일뱅크㈜직영 금천제일주유소,서울 금천구 남부순환로 1410 (독산동),HD현대오일뱅크,1704,1584,N,Y,N,N,N,N,금천구,37.4802077,126.9074805
145,이엠석유(주)배꽃나라주유소,서울 노원구 화랑로 466 (공릉1동),GS칼텍스,1605,1505,Y,Y,N,Y,N,N,노원구,37.6238137,127.0735097
146,구도일주유소 불암,서울 노원구 한글비석로 268 (중계동),S-OIL,1608,1515,Y,Y,N,N,N,N,노원구,37.6513513,127.0772401
147,(주)정건에너지직영,서울 노원구 노원로17길 29 (하계동),HD현대오일뱅크,1615,1525,Y,Y,N,N,N,N,노원구,37.642188,127.0703943
148,월계주유소,서울 노원구 월계로 252 (월계동),GS칼텍스,1615,1525,Y,Y,N,Y,N,N,노원구,37.6247784,127.0507659
149,삼육주유소,서울 노원구 화랑로 822 (공릉동),SK에너지,1625,1525,Y,Y,N,N,N,N,노원구,37.6386379,127.1090597
150,화랑대주유소,서울 노원구 화랑로 483,HD현대오일뱅크,1625,1525,Y,Y,N,N,N,N,노원구,37.61957719999999,127.0806305
151,태릉솔밭주유소,서울 노원구 노원로 49 (공릉동),S-OIL,1635,1545,Y,Y,N,N,N,Y,노원구,37.6259652,127.0855897
152,성북역주유소,서울 노원구 광운로 95 (월계동),GS칼텍스,1648,1548,N,Y,N,N,N,N,노원구,37.625771,127.0599365
153,한신주유소,서울 노원구 동일로 1089 (공릉동),S-OIL,1650,1560,Y,Y,N,N,N,N,노원구,37.6304722,127.0909904
154,상계동주유소,서울 노원구 노원로26길 191 (상계동),HD현대오일뱅크,1660,1575,N,N,N,Y,N,N,노원구,37.6583938,127.0711375
155,SK에너지㈜직영 상계주유소,서울 노원구 노해로 527 (상계동),SK에너지,1669,1559,N,Y,N,N,N,N,노원구,37.6559391,127.0664063
156,(주)소모 수락산셀프주유소,서울 노원구 동일로 1772,GS칼텍스,1685,1585,Y,N,N,N,N,N,노원구,37.6866593,127.055818
157,신성주유소,서울 노원구 월계로 328 (월계동),S-OIL,1688,1588,Y,Y,N,N,N,Y,노원구,37.6287786,127.0573351
158,하계삼호주유소,서울 노원구 공릉로 294 (하계동),GS칼텍스,1755,1695,N,N,N,Y,N,N,노원구,37.6336171,127.0722855
159,이케이에너지 주식회사,서울 도봉구 도봉로 941 (도봉동),HD현대오일뱅크,1580,1485,Y,Y,N,N,N,N,도봉구,37.6884305,127.0453374
160,도봉제일주유소(주)송만에너지,서울 도봉구 도봉로 783 (도봉동),HD현대오일뱅크,1580,1485,N,N,N,N,N,N,도봉구,37.6744606,127.0441244
161,(주)자연에너지 햇살주유소,서울 도봉구 방학로 142 (방학동),HD현대오일뱅크,1580,1485,Y,Y,N,N,N,N,도봉구,37.6630015,127.0363325
162,삼미북부셀프주유소,서울 도봉구 도봉로 437 (쌍문동),SK에너지,1590,1495,Y,Y,N,N,N,Y,도봉구,37.6498293,127.0200197
163,한이에너지(주) 쌍문주유소,서울 도봉구 도봉로 547 (쌍문동),S-OIL,1590,1495,Y,Y,N,Y,N,Y,도봉구,37.6533557,127.0271003
164,(주)헨지스에너지 구도일주유소 도봉,서울 도봉구 도봉로 706 (방학동),S-OIL,1599,1499,Y,Y,N,Y,N,N,도봉구,37.66686869999999,127.0435303
165,지에스칼텍스㈜ 방학동주유소,서울 도봉구 방학로 186,GS칼텍스,1599,1504,Y,Y,N,N,N,N,도봉구,37.6624108,127.0314758
166,지에스칼텍스㈜ 도봉주유소,서울 도봉구 도봉로 895 (도봉동),GS칼텍스,1599,1504,Y,Y,Y,Y,N,Y,도봉구,37.6843915,127.0456569
167,구도일주유소 파크빌,서울 도봉구 해등로3길 86 (창동),S-OIL,1617,1517,Y,N,N,N,N,N,도봉구,37.646799,127.0394578
168,(주)쌍문셀프주유소,서울 도봉구 노해로 161 (쌍문동),HD현대오일뱅크,1625,1525,Y,Y,N,Y,N,N,도봉구,37.649024,127.02688
169,동일석유(주) 창동주유소,서울 도봉구  도봉로 434 (창동),SK에너지,1627,1527,Y,Y,N,Y,N,N,도봉구,37.6446074,127.0327486
170,대성산업(주)신창주유소,서울 도봉구 덕릉로 267 (창동),GS칼텍스,1627,1537,Y,Y,N,N,N,Y,도봉구,37.6413354,127.040236
171,극동유화(주) 대안주유소,서울 도봉구 마들로 574 (창동),S-OIL,1629,1509,Y,Y,N,Y,N,N,도봉구,37.6615155,127.0475247
172,노원교주유소,서울 도봉구 마들로 776 (도봉동),HD현대오일뱅크,1635,1535,Y,Y,N,N,N,N,도봉구,37.678983,127.0497224
173,오복주유소,서울 도봉구 방학로 43,S-OIL,1697,1627,Y,Y,N,N,N,Y,도봉구,37.662341,127.0474542
174,HD현대오일뱅크㈜직영 영신주유소,서울 도봉구 방학로 151,HD현대오일뱅크,1727,1637,N,Y,N,N,N,N,도봉구,37.6623796,127.0354481
175,동서울고속주유소,서울 동대문구 한천로 414,SK에너지,1597,1497,Y,N,N,N,N,Y,동대문구,37.5975419,127.0680331
176,(주)자연에너지 국민주유소,서울 동대문구 답십리로 223 (답십리동),HD현대오일뱅크,1597,1497,Y,N,N,N,N,N,동대문구,37.572965,127.065037
177,풍한주유소,서울 동대문구 안암로 168,SK에너지,1605,1515,N,Y,N,N,N,Y,동대문구,37.5892531,127.0360122
178,재정제2주유소,서울 동대문구 사가정로 90 (전농동),HD현대오일뱅크,1607,1507,Y,Y,N,N,N,N,동대문구,37.5758698,127.0556493
179,재정주유소,서울 동대문구 전농로 121 (전농동),HD현대오일뱅크,1607,1507,Y,Y,N,N,N,N,동대문구,37.5757038,127.0574394
180,대성산업(주)동마장주유소,서울 동대문구 고산자로 405 (용두동),GS칼텍스,1625,1525,Y,Y,N,Y,N,Y,동대문구,37.5756916,127.0377503
181,(주)경동주유소,서울 동대문구 이문로 191 (이문동),S-OIL,1635,1535,Y,Y,N,N,N,N,동대문구,37.603596,127.0617855
182,대성산업㈜청량리주유소,서울 동대문구 왕산로 289 (청량리동),GS칼텍스,1635,1535,Y,Y,Y,N,N,Y,동대문구,37.5814177,127.0450724
183,열린주유소,서울 동대문구 한천로 263 (휘경동),S-OIL,1639,1539,N,N,N,N,N,N,동대문구,37.5882047,127.0645152
184,한영주유소 (한화),서울 동대문구 망우로 38 (휘경동),HD현대오일뱅크,1645,1599,N,N,N,N,N,N,동대문구,37.5884658,127.0576247
185,(주)파랑에너지,서울 동대문구 망우로 126,GS칼텍스,1645,1545,Y,Y,N,N,Y,N,동대문구,37.5912312,127.067054
186,삼영주유소,서울 동대문구 답십리로 258 (장안동),SK에너지,1647,1547,N,Y,N,N,N,N,동대문구,37.5723064,127.0688224
187,HD현대오일뱅크㈜직영 스피드주유소,서울 동대문구 천호대로 453 (장안동),HD현대오일뱅크,1659,1549,N,Y,N,N,N,Y,동대문구,37.5632059,127.0696316
188,홍능주유소,서울 동대문구 홍릉로 87 (청량리동),S-OIL,1667,1577,N,Y,N,N,N,N,동대문구,37.587938,127.0426612
189,(주)안국에너지 삼원셀프주유소,서울 동대문구 망우로 90 (휘경동),SK에너지,1668,1568,Y,Y,N,N,N,N,동대문구,37.5901827,127.0632663
190,배봉로주유소,서울 동대문구 서울시립대로 108,HD현대오일뱅크,1695,1595,Y,Y,N,N,N,N,동대문구,37.5800151,127.0510496
191,오동나무주유소,서울 동대문구  한천로 81 (답십리동),S-OIL,1718,1608,N,N,N,N,N,N,동대문구,37.57101950000001,127.0566992
192,삼미상사(주)장안킹셀프주유소,서울 동대문구  한천로 100 (장안동),SK에너지,1724,1624,Y,Y,N,N,N,N,동대문구,37.5790352,127.0696452
193,창원이엔지주유소,서울 동작구 사당로 59 (상도동),HD현대오일뱅크,1645,1565,Y,Y,N,N,N,N,동작구,37.4948674,126.9613387
194,지에스칼텍스(주) 대방주유소,서울 동작구 여의대방로 214,GS칼텍스,1654,1554,N,N,N,N,N,N,동작구,37.5058276,126.9229597
195,지에스칼텍스㈜직영 남성주유소,서울 동작구 동작대로 135 (사당동),GS칼텍스,1684,1619,Y,N,N,N,N,Y,동작구,37.4886815,126.9819661
196,매일주유소,서울 동작구 상도로 139 (상도동),S-OIL,1699,1659,Y,Y,N,N,N,N,동작구,37.5027348,126.9350838
197,HD현대오일뱅크㈜직영 사당셀프주유소,서울 동작구 동작대로 73 (사당동),HD현대오일뱅크,1699,1634,Y,Y,N,N,N,Y,동작구,37.4831082,126.9815397
198,HD현대오일뱅크㈜직영 신대방셀프주유소,서울 동작구 시흥대로 616 (신대방동),HD현대오일뱅크,1704,1574,Y,Y,N,Y,N,Y,동작구,37.48712039999999,126.9056444
199,HD현대오일뱅크㈜직영 흑석동셀프주유소,서울 동작구 현충로 101 (흑석동),HD현대오일뱅크,1704,1644,Y,Y,N,N,N,Y,동작구,37.5080132,126.9652693
200,HD현대오일뱅크㈜직영 동작주유소,서울 동작구 상도로 403 (상도동),HD현대오일뱅크,1714,1649,N,Y,N,N,N,N,동작구,37.4934739,126.9565221
201,살피재주유소,서울 동작구 상도로 334,SK에너지,1785,1695,N,N,N,N,N,N,동작구,37.4983947,126.9514055
202,(주)타이거통상 월드컵주유소,서울 마포구 월드컵북로 170 (성산제2동),S-OIL,1579,1489,Y,N,N,N,N,N,마포구,37.5686121,126.9031218
203,마포시엠주유소,서울 마포구 월드컵북로 62,SK에너지,1589,1499,N,N,N,N,N,N,마포구,37.5597259,126.917129
204,성산대교셀프주유소,서울 마포구 성산로 144,HD현대오일뱅크,1599,1529,Y,Y,N,Y,N,N,마포구,37.5642985,126.9093474
205,청원주유소,서울 마포구 월드컵북로 113 (성산동),HD현대오일뱅크,1599,1529,Y,Y,N,N,N,N,마포구,37.5628018,126.9150832
206,에쓰오일(주)마포주유소,서울 마포구 마포대로 186 (공덕동),S-OIL,1665,1599,Y,Y,N,N,N,N,마포구,37.5506305,126.9556511
207,에쓰오일(주) 염리동주유소,서울 마포구 백범로 126 (염리동),S-OIL,1669,1599,Y,Y,N,N,N,N,마포구,37.5462863,126.9448137
208,(주)안국에너지 망원동주유소,서울 마포구 월드컵로 119 (망원동),SK에너지,1678,1578,N,Y,N,N,N,N,마포구,37.558782,126.9072526
209,에스에스오토셀프,서울 마포구 서강로 76 (창전동),HD현대오일뱅크,1689,1619,Y,Y,N,N,N,Y,마포구,37.5498337,126.9325724
210,용강주유소,서울 마포구 토정로 258,S-OIL,1689,1619,N,N,N,N,N,N,마포구,37.543016,126.9388128
211,SK에너지 양지주유소,서울 마포구 마포대로 69 (도화동),SK에너지,1699,1659,N,N,N,N,Y,Y,마포구,37.5377002,126.946403
212,(주)만성상사 대흥주유소,서울 마포구 대흥로 61 (대흥동),SK에너지,1699,1629,N,Y,N,N,N,Y,마포구,37.5459548,126.9398991
213,SK에너지(주) 안국주유소,서울 마포구 양화로 33,SK에너지,1729,1679,N,N,N,N,N,Y,마포구,37.5493064,126.9126217
214,(주)가재울뉴타운주유소,서울 서대문구 모래내로 205,HD현대오일뱅크,1593,1494,Y,N,N,N,Y,N,서대문구,37.5732673,126.9224318
215,(주)미래아스팔트 신우주유소,서울 서대문구 가좌로 106(홍은동),S-OIL,1598,1508,Y,Y,N,Y,N,N,서대문구,37.5822656,126.9266001
216,남정주유소,서울 서대문구 모래내로 243 (남가좌동),GS칼텍스,1598,1508,N,N,N,N,N,N,서대문구,37.5756685,126.9255332
217,(주)한화미 구도일주유소 두꺼비,서울 서대문구 성산로 312,S-OIL,1599,1513,Y,Y,N,Y,N,N,서대문구,37.5660451,126.9249055
218,지에스칼텍스(주)홍제동주유소,서울 서대문구 통일로 372,GS칼텍스,1604,1509,Y,Y,N,N,N,N,서대문구,37.5835495,126.9501318
219,(주)창원이엔지 홍제지점,서울 서대문구 통일로 455 (홍제동),HD현대오일뱅크,1609,1549,N,N,N,N,N,N,서대문구,37.5891632,126.9495984
220,HD현대오일뱅크㈜직영 독립문주유소,서울 서대문구 통일로 384 (홍제동),HD현대오일뱅크,1634,1554,N,Y,N,N,Y,N,서대문구,37.59317619999999,126.9467313
221,중앙에너비스 동교지점,서울 서대문구 연희로 12 (창천동),SK에너지,1635,1535,Y,N,N,N,Y,N,서대문구,37.5587015,126.9342139
222,행촌제2주유소,서울 서대문구 성산로 490 (대신동),SK에너지,1648,1567,Y,Y,N,N,Y,Y,서대문구,37.5642199,126.9443096
223,(주)안국에너지 삼보셀프주유소,서울 서대문구 연희로 78 (연희동),SK에너지,1648,1568,Y,Y,N,Y,N,N,서대문구,37.5650007,126.9299305
224,HD현대오일뱅크㈜직영 연세주유소,서울 서대문구 연희로 184,HD현대오일뱅크,1649,1569,Y,Y,N,N,N,N,서대문구,37.5734611,126.935919
225,㈜우남에너지 문화사랑주유소,서울 서대문구 세검정로 87 (홍제동),S-OIL,1689,1629,Y,Y,N,N,N,N,서대문구,37.595515,126.9485511
226,삼미상사(주)서부주유소,서울 서대문구 성산로 255,SK에너지,1694,1624,Y,Y,N,Y,Y,N,서대문구,37.5675895,126.9188473
227,광호주유소,서울 서대문구 연희로 266 (홍은동),SK에너지,1698,1618,N,Y,N,N,N,N,서대문구,37.5806854,126.9364634
228,연희주유소,서울 서대문구 연희로 129 (연희동 89-7번지),SK에너지,1698,1618,N,Y,N,N,Y,N,서대문구,37.569286,126.9325313
229,만남의광장주유소,서울 서초구 양재대로12길 73-71,알뜰(ex),1567,1470,Y,N,Y,N,Y,Y,서초구,37.4600837,127.0421686
230,에너지 플러스 허브 내곡,서울 서초구 헌릉로 210,GS칼텍스,1625,1525,Y,Y,Y,N,N,Y,서초구,37.4553101,127.0629277
231,(주)대농석유 남태령주유소,서울 서초구 과천대로 838 (방배동),SK에너지,1635,1545,Y,Y,N,N,N,N,서초구,37.4668958,126.9878319
232,양재최고주유소,서울 서초구 매헌로 72 (양재동),S-OIL,1644,1544,N,Y,N,N,N,N,서초구,37.4671577,127.034715
233,(주)한미석유 서초주유소,서울 서초구 반포대로 64 (서초동),GS칼텍스,1655,1565,Y,N,N,N,N,N,서초구,37.48619559999999,127.0107825
234,서초하이웨이 주유소,서울 서초구 양재대로2길 100-30,S-OIL,1657,1557,Y,Y,N,N,N,Y,서초구,37.4572952,127.0162141
235,신반포주유소,서울 서초구 사평대로 94 (반포동),SK에너지,1660,1598,Y,Y,N,N,N,Y,서초구,37.498395,126.9948073
236,한독주유소,서울 서초구 방배로 218 (방배동),GS칼텍스,1660,1598,Y,N,N,N,N,N,서초구,37.4927083,126.9908482
237,서초꽃마을주유소,서울 서초구 반포대로 69 (서초동),GS칼텍스,1665,1575,Y,N,N,N,N,N,서초구,37.4864034,127.0099297
238,에쓰오일(주)직영 오토테크주유소,서울특별시 서초구  효령로 356 (서초동),S-OIL,1665,1575,Y,Y,N,Y,N,N,서초구,37.4864808,127.0228591
239,헌릉로주유소,서울 서초구 헌릉로 177 (내곡동),S-OIL,1665,1575,Y,Y,N,N,N,N,서초구,37.4573705,127.0602632
240,극동유화(주) 전당앞주유소,서울 서초구 남부순환로 2391 (서초동),S-OIL,1665,1575,Y,Y,Y,Y,N,N,서초구,37.4805543,127.0118209
241,태봉셀프주유소,서울 서초구 태봉로 117 (우면동),SK에너지,1665,1565,Y,Y,N,Y,N,N,서초구,37.4682757,127.028177
242,대성산업(주)직영 강남주유소,서울 서초구 반포대로 284 (반포동),GS칼텍스,1670,1609,Y,N,N,N,N,N,서초구,37.5046215,127.0017978
243,에너지플러스허브 삼방주유소,서울 서초구 사평대로 364 (서초동),GS칼텍스,1676,1639,Y,Y,N,N,N,Y,서초구,37.5037123,127.0230958
244,반포그린주유소,서울 서초구 서초중앙로 239 (반포동),GS칼텍스,1676,1639,Y,Y,N,N,N,N,서초구,37.5032325,127.0108559
245,대성석유(주)연일주유소,서울 서초구 남부순환로 2451,GS칼텍스,1676,1595,N,Y,N,N,Y,N,서초구,37.4825868,127.0185128
246,지에스칼텍스(주)선천주유소,서울 서초구 동작대로 206 (방배동),GS칼텍스,1684,1619,N,Y,N,N,N,N,서초구,37.4949425,126.9832056
247,HD현대오일뱅크㈜직영 팔레스주유소,서울 서초구 사평대로 136 (반포동),HD현대오일뱅크,1685,1624,N,N,N,N,N,Y,서초구,37.50013939999999,126.9991833
248,말죽거리주유소,서울 서초구 남부순환로 2650 (양재동),GS칼텍스,1686,1596,N,N,N,N,N,N,서초구,37.4851973,127.040674
249,대성산업(주)직영 터미널(고속)주유소,서울 서초구 신반포로 222 (반포동),GS칼텍스,1695,1635,N,Y,N,N,N,Y,서초구,37.5067688,127.0088214
250,대신석유(주)대우주유소,서울 서초구 양재대로 173 (양재동),SK에너지,1699,1597,Y,Y,N,N,Y,Y,서초구,37.4628309,127.0375576
251,HD현대오일뱅크㈜직영 사평로주유소,서울 서초구 사평대로 350 (서초동),HD현대오일뱅크,1701,1664,N,Y,N,N,N,N,서초구,37.5033026,127.0215211
252,HD현대오일뱅크㈜직영 방배현대주유소,서울 서초구 동작대로 182 (방배동),HD현대오일뱅크,1707,1635,N,Y,N,Y,N,N,서초구,37.4928547,126.9831829
253,양재주유소,서울 서초구 바우뫼로 178,SK에너지,1709,1619,N,Y,N,N,N,Y,서초구,37.47808850000001,127.0395922
254,HD현대오일뱅크㈜직영 양재현대주유소,서울 서초구 마방로 6,HD현대오일뱅크,1714,1619,N,Y,N,N,N,N,서초구,37.4735721,127.0397039
255,HD현대오일뱅크㈜직영 서초제일주유소,서울 서초구 사임당로 116 (서초동),HD현대오일뱅크,1714,1666,N,Y,N,N,N,N,서초구,37.4905573,127.0226052
256,지에스칼텍스(주)남서울주유소,서울 서초구 나루터로 83 (잠원동),GS칼텍스,1769,1729,N,Y,N,N,Y,Y,서초구,37.5161567,127.0189145
257,방배동주유소,서울 서초구 효령로 29 (방배동),SK에너지,1893,1796,N,Y,N,N,N,N,서초구,37.4781026,126.9877681
258,대신석유㈜서원주유소,서울 서초구 반포대로 142 (서초동),SK에너지,1998,1898,N,Y,N,N,N,N,서초구,37.4928016,127.0075873
259,(주)선문에너지 중앙주유소,서울특별시 서초구  바우뫼로 219 (양재1동),S-OIL,2168,1989,N,Y,N,N,N,N,서초구,37.4815514,127.0422343
260,(주)서울에너지 직영,서울 성동구 천호대로 324 (용답동),S-OIL,1573,1473,Y,Y,N,N,N,Y,성동구,37.56426070000001,127.055685
261,성동스카이셀프주유소,서울 성동구 천호대로 392,SK에너지,1585,1485,Y,Y,N,N,N,Y,성동구,37.5614303,127.0623272
262,HD현대오일뱅크㈜직영 효진주유소,서울 성동구 동일로 129,HD현대오일뱅크,1615,1508,N,Y,N,N,N,N,성동구,37.54407130000001,127.0647101
263,KLP제2주유소,서울 성동구 동일로 249 (송정동),HD현대오일뱅크,1615,1508,Y,N,N,N,N,N,성동구,37.5539975,127.0703898
264,지에스칼텍스㈜ 도루코주유소,서울 성동구 아차산로 180,GS칼텍스,1615,1508,Y,Y,N,Y,N,Y,성동구,37.5420525,127.0634301
265,정호주유소,서울 성동구 고산자로 307 (마장동),자가상표,1618,1518,N,N,N,N,N,N,성동구,37.5669552,127.0364332
266,아이콘주유소,서울 성동구 고산자로 273 (도선동),S-OIL,1648,1538,Y,Y,N,N,N,Y,성동구,37.5633832,127.0329388
267,SK에너지(주) 군자동주유소,서울 성동구 천호대로 446 (용답동),SK에너지,1649,1539,N,Y,N,N,N,Y,성동구,37.56055500000001,127.0683433
268,HD현대오일뱅크㈜직영 성동셀프주유소,서울 성동구 마장로 311 (마장동),HD현대오일뱅크,1652,1552,Y,Y,N,N,N,N,성동구,37.5670144,127.0437272
269,SK세원2주유소,서울 성동구 광나루로 184 (성수동1가),SK에너지,1796,1710,N,Y,N,Y,N,N,성동구,37.5509095,127.0505002
270,SK KH에너지 성수만세주유소,서울 성동구 왕십리로 109,SK에너지,1798,1715,Y,Y,N,N,N,N,성동구,37.5475346,127.0442557
271,SK에너지(주) 성수주유소,서울 성동구 뚝섬로 352 (성수동1가),SK에너지,1798,1735,N,Y,N,N,N,N,성동구,37.5399634,127.049938
272,금호주유소,서울 성동구 금호로 39 (금호동4가),GS칼텍스,1896,1797,N,N,N,N,N,N,성동구,37.5470866,127.0250571
273,동일주유소,서울 성동구 광나루로 254 (성수동2가),HD현대오일뱅크,1987,1889,N,Y,N,N,N,N,성동구,37.548454,127.0578468
274,청계로주유소,서울 성동구 청계천로 454 (하왕십리동),SK에너지,2095,1995,N,Y,N,N,N,N,성동구,37.5700973,127.0274044
275,(주)옥수하이웨이스테이션,서울 성동구 독서당로 168 (옥수동),GS칼텍스,2198,2098,N,N,N,N,N,N,성동구,37.5410237,127.0113682
276,원천주유소,서울 성북구 돌곶이로 142 (장위동),GS칼텍스,1594,1494,Y,N,N,N,N,N,성북구,37.614895,127.0527317
277,장삼 쌍둥이 주유소,서울 성북구 한천로 612 (장위동),HD현대오일뱅크,1595,1495,Y,Y,N,N,N,N,성북구,37.6136043,127.0602993
278,중앙에너비스 종암지점,서울 성북구 종암로 58,SK에너지,1599,1499,Y,Y,N,N,N,Y,성북구,37.5956086,127.0360473
279,이케이에너지㈜ 강산주유소,서울 성북구 보문로 27 (보문동7가),GS칼텍스,1599,1499,Y,Y,N,N,N,Y,성북구,37.5797789,127.0223627
280,(주)삼표에너지 정릉주유소,서울 성북구 보국문로 35 (정릉동),GS칼텍스,1599,1499,Y,Y,N,Y,N,N,성북구,37.6076426,127.0099487
281,이케이에너지(주) 강산제2주유소,서울 성북구 보국문로 52,HD현대오일뱅크,1599,1499,Y,Y,N,N,N,N,성북구,37.609185,127.0100314
282,우리주유소,서울 성북구 화랑로 292,SK에너지,1614,1515,Y,Y,N,Y,N,Y,성북구,37.6126118,127.0614248
283,신동방주유소,서울 성북구 월계로 84 (장위동),S-OIL,1615,1515,Y,N,N,N,N,N,성북구,37.6134293,127.0381042
284,지에스칼텍스(주) 종암주유소,서울 성북구 종암로 145 (종암동),GS칼텍스,1615,1515,Y,Y,N,N,N,Y,성북구,37.6027636,127.0320634
285,(주)성북주유소,서울 성북구 보문로 142,HD현대오일뱅크,1615,1525,Y,Y,N,N,N,N,성북구,37.58757749999999,127.018447
286,신방주유소,서울 성북구 안암로 111 (안암동5가),S-OIL,1625,1515,N,N,N,N,N,N,성북구,37.5855561,127.031846
287,장위주유소,서울 성북구 화랑로 110 (하월곡동),S-OIL,1625,1515,Y,Y,N,N,N,Y,성북구,37.6046451,127.0393912
288,재정제2주유소 길음지점,서울 성북구 삼양로 78 (길음동),HD현대오일뱅크,1629,1539,N,N,N,N,N,N,성북구,37.6102832,127.0227443
289,SK에너지(주) 드림랜드주유소,서울 성북구 월계로 128 (장위동),SK에너지,1635,1535,N,N,N,N,N,N,성북구,37.6165817,127.0414452
290,HD현대오일뱅크㈜직영 고대셀프주유소,서울 성북구 종암로 12 (종암동),HD현대오일뱅크,1640,1540,Y,Y,N,N,N,N,성북구,37.5916521,127.0366717
291,HD현대오일뱅크㈜직영 북악셀프주유소,서울 성북구 정릉로 218 (정릉동),HD현대오일뱅크,1642,1540,Y,Y,N,N,N,N,성북구,37.6055001,127.0085818
292,(주)신용 구도일주유소화랑로,서울 성북구 화랑로 174,S-OIL,1653,1543,Y,Y,N,Y,N,N,성북구,37.6068678,127.0500641
293,㈜명연에너지 효성주유소,서울 성북구 화랑로 27,GS칼텍스,1685,1575,Y,Y,N,Y,N,Y,성북구,37.6031281,127.0351726
294,동일주유소,서울특별시 성북구  보문로 85 (보문동5가),S-OIL,1685,1598,Y,Y,N,N,N,Y,성북구,37.58270419999999,127.0191918
295,지에스칼텍스㈜ 화랑주유소,서울 성북구 화랑로 185,GS칼텍스,1694,1649,N,N,N,N,N,N,성북구,37.60786909999999,127.050821
296,HD현대오일뱅크㈜직영 아리랑주유소,서울 성북구 아리랑로 96 (정릉동),HD현대오일뱅크,1695,1614,N,Y,N,N,N,N,성북구,37.600488,127.0142664
297,삼선주유소,서울 성북구 창경궁로 324,S-OIL,1739,1565,Y,Y,N,N,N,N,성북구,37.5879888,127.005574
298,지에스칼텍스㈜ 세창주유소,서울 성북구 동소문로 323,GS칼텍스,1814,1714,Y,N,N,N,N,N,성북구,37.6087802,127.0295006
299,한강에너지(주)퍼스트주유소,서울 송파구 삼학사로 22 (석촌동),SK에너지,1623,1533,Y,Y,N,Y,N,N,송파구,37.4993144,127.0970662
300,위례제일주유소 (주)버드에너지,서울 송파구 위례서로 260,S-OIL,1633,1543,Y,Y,N,N,N,N,송파구,37.4878153,127.1426953
301,지에스칼텍스(주)스마트위례주유소,서울 송파구 위례중앙로 43 (장지동),GS칼텍스,1633,1543,Y,Y,N,N,N,N,송파구,37.4754161,127.1321545
302,상아주유소,서울 송파구 거마로 82,S-OIL,1633,1543,Y,Y,N,N,N,N,송파구,37.500202,127.1478703
303,남성대주유소,서울 송파구 송파대로 52 (장지동),SK에너지,1633,1543,Y,Y,N,Y,N,Y,송파구,37.4753841,127.1275855
304,위례드림주유소,서울시 송파구  위례중앙로 10,S-OIL,1633,1543,Y,Y,N,N,N,Y,송파구,37.4754274,127.1284707
305,지에스칼텍스(주)가든파이브주유소,서울 송파구 탄천동로 740,GS칼텍스,1633,1543,Y,Y,N,N,Y,Y,송파구,37.4972962,127.0892473
306,(주)삼표에너지 아시아주유소,서울 송파구 도곡로 438 (잠실동),GS칼텍스,1643,1553,Y,Y,N,N,N,N,송파구,37.5045958,127.0773693
307,삼화주유소,서울 송파구 백제고분로 125,GS칼텍스,1643,1553,Y,N,N,N,N,Y,송파구,37.5065882,127.0810065
308,지에스이앤알 직영 송파제일주유소,서울 송파구 삼학사로 50 (석촌동),HD현대오일뱅크,1655,1543,Y,Y,N,Y,N,Y,송파구,37.5016713,127.0973336
309,(유)호림플러스홀딩스 남성주유소,서울 송파구 백제고분로 474 (방이동),HD현대오일뱅크,1667,1567,N,Y,N,N,N,N,송파구,37.5125917,127.1139709
310,대성주유소,서울 송파구 마천로 230 (마천동),SK에너지,1668,1578,N,Y,N,N,N,N,송파구,37.500054,127.1431473
311,HD현대오일뱅크㈜직영 잠실셀프주유소,서울 송파구 송파대로 397 (석촌동),HD현대오일뱅크,1668,1568,Y,N,N,N,N,Y,송파구,37.5027277,127.108967
312,(주)신화에너지 서울지점,서울 송파구 가락로 47 (석촌동),SK에너지,1669,1568,Y,Y,N,Y,N,Y,송파구,37.4994902,127.1017419
313,(주)삼표에너지 훼미리주유소,서울 송파구 중대로 58 (문정동),GS칼텍스,1677,1577,N,Y,N,N,N,N,송파구,37.4912353,127.1153533
314,(주)유진주유소,서울 송파구 동남로 325 (오금동),SK에너지,1682,1592,N,Y,N,N,N,N,송파구,37.5045778,127.1384385
315,제트라인DM주유소,서울 송파구 중대로 183 (가락동),HD현대오일뱅크,1682,1595,N,N,N,Y,N,N,송파구,37.4985047,127.125431
316,방이주유소,서울 송파구 위례성대로12길 38 (방이동),SK에너지,1682,1592,N,Y,N,Y,N,N,송파구,37.5106744,127.1208223
317,(주)잠실에너지,서울 송파구 송파대로 442 (송파동),S-OIL,1683,1593,Y,Y,N,Y,N,Y,송파구,37.5051072,127.1135469
318,백제고분로주유소,서울 송파구 오금로 143 (방이동),SK에너지,1683,1593,Y,Y,N,Y,Y,Y,송파구,37.5122326,127.1168766
319,완불주유소,서울 송파구 송파대로 3 (장지동),SK에너지,1686,1608,Y,Y,N,N,N,Y,송파구,37.4711097,127.1261708
320,(주)삼표에너지 우리주유소,서울 송파구 동남로 153,GS칼텍스,1687,1597,Y,Y,N,N,N,N,송파구,37.49238570000001,127.1273583
321,송파주유소,서울 송파구 송이로 28 (송파동),GS칼텍스,1695,1595,Y,N,N,Y,N,N,송파구,37.5088494,127.1064009
322,대성석유(주)석촌주유소,서울 송파구 백제고분로 289,GS칼텍스,1697,1597,N,N,N,Y,N,N,송파구,37.5028242,127.0985725
323,(주)정직한주유소,서울 송파구 오금로 455 (거여동),HD현대오일뱅크,1697,1607,Y,Y,N,N,N,N,송파구,37.4897279,127.1449912
324,(주)퍼스트오일서울주유소,서울 송파구 문정로 153,S-OIL,1710,1630,N,N,N,N,N,N,송파구,37.4932132,127.136384
325,HD현대오일뱅크㈜직영 올림픽셀프주유소,서울 송파구 위례성대로 188 (오금동),HD현대오일뱅크,1733,1643,Y,Y,N,Y,N,Y,송파구,37.509825,127.131607
326,대신석유(주)진양주유소,서울 송파구 올림픽로 499 (풍납동),SK에너지,1898,1798,N,Y,N,N,N,N,송파구,37.5336683,127.1206178
327,현대주유소,서울 양천구 남부순환로 372 (신월동),S-OIL,1573,1473,Y,Y,N,N,N,N,양천구,37.5338727,126.8292625
328,플라트(주)서호주유소,서울 양천구 남부순환로 317,GS칼텍스,1573,1473,Y,Y,N,Y,N,N,양천구,37.5386609,126.8268367
329,(주)타이거오일 신정주유소,서울 양천구 중앙로 226 (신정동),SK에너지,1574,1484,Y,N,N,N,N,N,양천구,37.5168016,126.8546639
330,가로공원주유소,서울 양천구 가로공원로 165 (신월동),SK에너지,1593,1493,N,Y,N,N,N,Y,양천구,37.5370157,126.8342852
331,신월주유소,서울 양천구 신월로 193 (신월동),GS칼텍스,1594,1484,Y,N,N,N,N,N,양천구,37.5200606,126.8440803
332,개나리Self주유소,서울 양천구 남부순환로 442 (신월동),SK에너지,1595,1493,Y,Y,N,Y,N,N,양천구,37.5282825,126.8329476
333,형산석유(주)원주유소,서울 양천구 남부순환로 408,HD현대오일뱅크,1595,1493,N,Y,N,Y,N,N,양천구,37.53113889999999,126.8309818
334,양천구주유소,서울 양천구 국회대로 275 (목동),알뜰주유소,1619,1519,Y,Y,N,Y,N,Y,양천구,37.5303149,126.8655168
335,SK에너지(주) 경인주유소,서울 양천구 국회대로 170 (신정동),SK에너지,1649,1594,Y,Y,N,N,N,N,양천구,37.5281554,126.8538235
336,현대오일뱅크(주)직영 양천셀프주유소,서울 양천구 목동로 17,HD현대오일뱅크,1649,1580,Y,Y,N,N,N,N,양천구,37.5106675,126.8710352
337,SK에너지(주) 신평,서울 양천구 목동남로 62,SK에너지,1649,1570,N,Y,N,Y,N,N,양천구,37.5093842,126.866217
338,지에스이앤알 직영 서울주유소,서울 양천구 신정로 236 (신정동),GS칼텍스,1655,1547,Y,Y,N,N,N,N,양천구,37.510561,126.8476971
339,신정동주유소,서울 양천구 안양천로 663 (신정동),HD현대오일뱅크,1657,1547,Y,Y,N,N,Y,N,양천구,37.5065537,126.8711542
340,(주)삼표에너지 목동주유소,서울 양천구 목동서로 129 (목동),GS칼텍스,1657,1574,Y,Y,N,N,N,N,양천구,37.5321651,126.8755188
341,목동주유소,서울 양천구 목동중앙로 125 (목동),SK에너지,1658,1574,Y,Y,N,N,N,N,양천구,37.5396159,126.8745755
342,HD현대오일뱅크㈜직영 남부순환셀프주유소,서울 양천구 남부순환로 553 (신월동),HD현대오일뱅크,1659,1564,Y,Y,N,N,Y,Y,양천구,37.5194921,126.8388027
343,현대오일뱅크(주)직영 양정주유소,서울 양천구 국회대로 158 (신정동),HD현대오일뱅크,1664,1579,N,N,N,N,N,N,양천구,37.5280588,126.8525771
344,지에스칼텍스㈜ 건지주유소,서울 양천구 안양천로 1171 (목동),GS칼텍스,1669,1574,Y,Y,N,N,N,N,양천구,37.5453243,126.8821112
345,현대오일뱅크㈜직영 목동셀프주유소,서울 양천구 공항대로 648 (목동),HD현대오일뱅크,1672,1589,Y,N,N,N,N,N,양천구,37.5463603,126.8639241
346,현대오일뱅크(주)직영 양천현대셀프주유소,서울 양천구 안양천로 1179 (목동),HD현대오일뱅크,1672,1589,Y,Y,Y,Y,Y,Y,양천구,37.5459778,126.8813541
347,(주)서부트럭터미날,서울 양천구 신정로 167 (신정동),HD현대오일뱅크,1689,1579,N,Y,N,N,N,N,양천구,37.5094872,126.8392408
348,삼미상사(주)신월IC셀프주유소,서울 양천구 중앙로 331 (신월동),SK에너지,1699,1599,Y,N,N,Y,N,N,양천구,37.5255016,126.8497956
349,현대오일뱅크(주)직영 신목동셀프주유소,서울 양천구 목동동로10길 13,HD현대오일뱅크,1714,1696,Y,Y,N,Y,N,N,양천구,37.5195788,126.8710739
350,신양주유소,서울 양천구 지양로 67,SK에너지,1745,1643,N,Y,N,N,N,N,양천구,37.5215246,126.8338425
351,남서울고속주유소,서울 영등포구 가마산로 367 (대림동),SK에너지,1585,1485,Y,Y,N,N,N,Y,영등포구,37.5016028,126.8988662
352,영등포제일셀프주유소,서울 영등포구 가마산로 379,HD현대오일뱅크,1585,1485,Y,Y,N,Y,N,N,영등포구,37.5023476,126.8995031
353,(주)대청에너지 대청주유소,서울 영등포구 가마산로 328 (대림동),GS칼텍스,1585,1485,Y,Y,N,Y,N,Y,영등포구,37.4985472,126.895759
354,(주)MS에너지,서울 영등포구 대림로 230,HD현대오일뱅크,1593,1485,N,Y,N,N,N,N,영등포구,37.5013367,126.8974358
355,(주)강서오일,서울 영등포구 도신로 151,HD현대오일뱅크,1595,1485,Y,N,N,N,N,Y,영등포구,37.5100219,126.908238
356,씨앤에스유통(주) 한일주유소,서울 영등포구 도림로 486 (문래동3가),S-OIL,1595,1485,Y,Y,N,N,N,N,영등포구,37.5172698,126.8957152
357,행촌주유소,서울 영등포구 도신로 130 (신길동),SK에너지,1595,1485,Y,Y,N,N,Y,Y,영등포구,37.5086161,126.9062365
358,영등포현대셀프주유소,서울 영등포구 경인로 822 (영등포동),HD현대오일뱅크,1595,1485,Y,N,N,N,Y,N,영등포구,37.5153398,126.9044905
359,성락주유소,서울 영등포구 가마산로 414 (신길동),S-OIL,1595,1485,Y,Y,N,N,N,N,영등포구,37.503825,126.902869
360,한경석유(주)경덕주유소,서울 영등포구 여의대방로23길 2 (신길동),SK에너지,1595,1485,Y,Y,N,N,N,Y,영등포구,37.5176968,126.9169974
361,지에스칼텍스㈜ 신길주유소,서울 영등포구 신길로 74 (신길동),GS칼텍스,1599,1499,Y,Y,N,N,N,Y,영등포구,37.4990517,126.9087328
362,㈜지에스이앤알 모드니주유소,서울 영등포구 경인로 789,GS칼텍스,1647,1545,N,Y,N,N,N,N,영등포구,37.5146455,126.9007596
363,씨앤에스유통 한성주유소,서울 영등포구 여의대방로 227,S-OIL,1655,1555,N,N,N,N,N,N,영등포구,37.5072011,126.922904
364,매봉주유소,서울 영등포구 도신로 248 (신길동),HD현대오일뱅크,1657,1555,Y,Y,N,Y,N,N,영등포구,37.51308849999999,126.9183345
365,(주)지에스이앤알 보라주유소,서울 영등포구 영등포로 399 (신길동),GS칼텍스,1657,1555,N,Y,N,N,N,N,영등포구,37.5135359,126.9227357
366,SK에너지(주) 신길동주유소,서울 영등포구 영등포로 348 (신길동),SK에너지,1659,1565,N,Y,N,N,N,N,영등포구,37.5153215,126.9170112
367,국회대로주유소,서울 영등포구 국회대로 746 (여의도동),HD현대오일뱅크,1668,1597,Y,Y,N,N,N,N,영등포구,37.52799359999999,126.916041
368,HD현대오일뱅크㈜직영 대일셀프주유소,서울 영등포구 영등포로 168,HD현대오일뱅크,1669,1584,Y,N,N,N,N,N,영등포구,37.52049179999999,126.9000619
369,(주)한미석유 제2한강주유소,서울 영등포구 선유로 260 (양평동4가),GS칼텍스,1674,1619,Y,Y,N,N,N,N,영등포구,37.5375352,126.8970104
370,SK에너지(주) 기린주유소,서울 영등포구 선유로 270,SK에너지,1674,1619,Y,Y,N,N,Y,Y,영등포구,37.5360437,126.899268
371,SK에너지(주) 양평주유소,서울 영등포구 선유로 195 (양평동3가),SK에너지,1674,1619,Y,Y,N,N,N,Y,영등포구,37.5290356,126.8910476
372,지에스칼텍스㈜ 화일주유소,서울 영등포구 도림로 415,GS칼텍스,1679,1589,Y,N,N,N,N,N,영등포구,37.5132508,126.8964901
373,선유도주유소,서울 영등포구 양평로 141 (양평동5가),S-OIL,1684,1629,Y,Y,N,N,N,N,영등포구,37.5393663,126.8926449
374,성원이앤에스(주)영등포지점,서울 영등포구 국회대로52길 9-13 (영등포동7가),GS칼텍스,1997,1938,N,N,N,N,N,N,영등포구,37.5248744,126.9067623
375,버드나룻길주유소,서울 영등포구 버드나루로 111 (당산동),SK에너지,2065,1965,N,Y,N,N,N,N,영등포구,37.5280177,126.9078708
376,SK KH에너지 여의도주유소,서울 영등포구 국회대로 794 (여의도동),SK에너지,2195,2189,N,Y,N,N,N,N,영등포구,37.5307944,126.9203901
377,SJ오일(주) 여의도주유소,서울 영등포구 은행로 64,GS칼텍스,2295,2395,N,Y,Y,N,Y,Y,영등포구,37.53037990000001,126.9255782
378,HD현대오일뱅크㈜직영 한남동주유소,서울 용산구 한남대로 204 (한남동),HD현대오일뱅크,1904,1784,N,Y,N,Y,N,N,용산구,37.5459695,127.0028749
379,(주)영원 풍기주유소,서울 용산구 원효로 178 (원효로2가),GS칼텍스,2020,1936,N,N,N,N,Y,N,용산구,37.5356171,126.9627002
380,(주)신태성주유소,서울 용산구 원효로 147 (원효로3가),SK에너지,2134,1988,N,Y,N,N,N,N,용산구,37.5337268,126.9561284
381,동자동주유소,서울 용산구 한강대로104길 6 (동자동),SK에너지,2155,2007,N,Y,N,N,N,N,용산구,37.5527936,126.9747968
382,HD현대오일뱅크㈜직영 갈월동주유소,서울특별시 용산구  한강대로 322 (남영동),HD현대오일뱅크,2155,2007,N,Y,N,Y,N,N,용산구,37.5470375,126.9722357
383,HD현대오일뱅크㈜직영 강변현대주유소,서울 용산구 원효로 9 (청암동),HD현대오일뱅크,2159,2076,N,Y,N,Y,N,N,용산구,37.53449570000001,126.9466634
384,HD현대오일뱅크(주)직영 소월길주유소,서울 용산구 소월로 66 (후암동),HD현대오일뱅크,2159,2006,N,Y,N,N,N,N,용산구,37.5505845,126.9769958
385,(주)남경주유소,서울 용산구 녹사평대로11길 24,SK에너지,2179,2048,N,Y,N,Y,N,Y,용산구,37.522633,126.9931266
386,한남지점,서울 용산구 한남대로21길 4 (한남동),SK에너지,2267,2167,N,N,N,N,N,N,용산구,37.5347327,127.0060948
387,에너비스,서울 용산구 한남대로 82 (한남동),SK에너지,2267,2167,N,Y,N,N,N,N,용산구,37.5360412,127.0061276
388,한석주유소,서울 용산구 이촌로 164,SK에너지,2287,2147,N,Y,N,N,N,Y,용산구,37.5213901,126.965557
389,서계주유소,서울 용산구  청파로 367 (청파동),GS칼텍스,2693,2729,N,Y,N,N,N,N,용산구,37.5523286,126.9689462
390,(주)디오티디 은평유니콘주유소,서울 은평구 통일로 1151 (진관동),HD현대오일뱅크,1579,1479,N,Y,N,N,N,N,은평구,37.6432264,126.9200074
391,㈜오일닷컴 다회주유소,서울 은평구 증산로 441,S-OIL,1594,1524,Y,N,N,N,N,N,은평구,37.5956389,126.9144967
392,타이거주유소,서울 은평구 수색로 188 (증산동),SK에너지,1594,1494,Y,Y,N,N,N,N,은평구,37.5851478,126.9041521
393,불광주유소,서울 은평구 연서로 314 (불광동),HD현대오일뱅크,1598,1518,Y,Y,N,N,N,N,은평구,37.6203973,126.9237684
394,지에스칼텍스(주)수색뉴타운주유소,서울 은평구 수색로 350 (수색동),GS칼텍스,1599,1514,Y,Y,N,N,N,N,은평구,37.5871708,126.8875393
395,지에스칼텍스㈜ 신사제일주유소,서울 은평구 증산로 423 (신사동),GS칼텍스,1599,1549,Y,Y,N,N,N,Y,은평구,37.595613,126.9072033
396,지에스칼텍스㈜ 서부주유소,서울 은평구 응암로 210 (응암동),GS칼텍스,1614,1564,Y,Y,N,Y,N,N,은평구,37.5907918,126.9178076
397,응암주유소,서울 은평구 응암로 163,HD현대오일뱅크,1624,1574,Y,N,N,N,N,N,은평구,37.5867482,126.9159464
398,대성산업㈜ 대성주유소,서울 은평구 통일로 642,GS칼텍스,1625,1528,Y,Y,N,N,N,Y,은평구,37.6040651,126.9352558
399,(주)명연에너지 수색훼미리주유소,서울 은평구 수색로 236 (수색동),HD현대오일뱅크,1625,1525,Y,Y,N,N,N,N,은평구,37.5810937,126.8977068
400,박석고개주유소,서울 은평구 통일로 945 (갈현동),SK에너지,1647,1557,Y,Y,N,N,N,Y,은평구,37.621541,126.913578
401,은평뉴타운주유소,서울 은평구 통일로 924 (불광동),SK에너지,1647,1557,Y,Y,N,Y,N,N,은평구,37.6252977,126.9204031
402,성원이앤에스(주)은평지점,서울 은평구 통일로 968 (진관동),GS칼텍스,1647,1557,Y,Y,N,N,N,N,은평구,37.629232,126.919704
403,뉴타운셀프주유소,서울 은평구 통일로 1031,S-OIL,1655,1575,Y,N,N,N,N,N,은평구,37.6434743,126.9173715
404,코끼리주유소,서울 은평구 서오릉로 41 (녹번동),자가상표,1698,1618,N,Y,N,N,N,N,은평구,37.6032738,126.9294193
405,HD현대오일뱅크㈜직영 재동주유소,서울 종로구 율곡로 58 (경운동),HD현대오일뱅크,1664,1594,Y,N,N,N,N,N,종로구,37.5752013,126.9864207
406,㈜지에스이앤알 평창주유소,서울 종로구 평창문화로 135 (평창동),HD현대오일뱅크,1759,1699,Y,Y,N,N,N,N,종로구,37.6097352,126.974513
407,안풍주유소,서울 종로구 자하문로 303,S-OIL,1769,1689,N,Y,N,N,N,N,종로구,37.5992064,126.9591445
408,자하문주유소,서울 종로구 자하문로 248 (부암동),SK에너지,1769,1689,Y,Y,N,N,N,N,종로구,37.592748,126.9664018
409,구도일주유소특종,서울 종로구 평창문화로 90 (평창동),S-OIL,1790,1690,N,Y,N,N,N,N,종로구,37.6066898,126.9710988
410,SK북악주유소,서울 종로구 평창문화로 137,SK에너지,2198,2098,N,Y,N,N,N,N,종로구,37.6098636,126.9748982
411,경복궁주유소,서울 종로구 율곡로 6 (중학동),GS칼텍스,2290,2180,N,N,N,N,N,N,종로구,37.5753126,126.9796775
412,(주)대양씨앤씨 사직주유소,서울 종로구 사직로 65 (사직동),GS칼텍스,2295,2185,N,N,N,N,N,N,종로구,37.5745053,126.9666069
413,다산주유소,서울 중구 다산로 233,S-OIL,1629,1529,Y,N,N,N,N,N,중구,37.5639408,127.0156831
414,약수주유소,서울 중구 다산로 173,SK에너지,1667,1568,Y,Y,N,Y,N,Y,중구,37.5590258,127.0126614
415,장충드림주유소,서울 중구 동호로 296,S-OIL,1695,1595,Y,Y,N,N,N,N,중구,37.5608503,127.0034182
416,세화주유소,서울 중구 왕십리로 403,알뜰주유소,1768,1668,N,Y,N,Y,N,Y,중구,37.5647309,127.0255275
417,HD현대오일뱅크㈜직영 장원주유소,서울 중구 동호로 203 (신당동),HD현대오일뱅크,1813,1713,N,N,N,N,N,N,중구,37.5560123,127.0092922
418,SK에너지(주) 퇴계로주유소,서울 중구 퇴계로 228 (필동2가),SK에너지,1954,1954,N,N,N,N,N,N,중구,37.5587734,126.9947209
419,장충주유소,서울 중구 장충단로 202 (장충동1가),SK에너지,2048,1999,N,Y,N,N,N,Y,중구,37.5609763,127.0075809
420,신당동주유소,서울 중구 다산로 242 (신당동),SK에너지,2148,1998,N,Y,N,N,N,Y,중구,37.5646022,127.01641
421,필동주유소,서울 중구 퇴계로 196 (필동2가),GS칼텍스,2469,2329,N,N,N,N,N,Y,중구,37.5587734,126.9947209
422,서남주유소,서울 중구 통일로 30,SK에너지,2697,2563,N,Y,N,N,N,Y,중구,37.5583749,126.9720939
423,대양주유소,서울 중랑구 봉우재로 105 (상봉동),GS칼텍스,1597,1497,Y,Y,N,N,N,N,중랑구,37.5925921,127.0848788
424,대원주유소,서울 중랑구 동일로 600,GS칼텍스,1597,1497,Y,Y,N,N,N,N,중랑구,37.5840333,127.0801082
425,오천만주유소,서울 중랑구 동일로 547 (면목동),S-OIL,1597,1497,Y,Y,N,N,N,N,중랑구,37.5791224,127.0793311
426,면목SELF주유소,서울 중랑구 동일로 627 (면목동),SK에너지,1597,1497,Y,Y,N,Y,N,N,중랑구,37.5863498,127.0795885
427,우림주유소,서울 중랑구 용마산로 487 (망우제3동),GS칼텍스,1597,1497,Y,Y,N,N,N,N,중랑구,37.5923318,127.0991054
428,(주)자연에너지 대창주유소,서울 중랑구 동일로 636 (면목동),HD현대오일뱅크,1597,1497,Y,N,N,N,N,N,중랑구,37.5872069,127.080217
429,구도일주유소 동천,서울 중랑구 동일로 654 (면목동),S-OIL,1597,1497,Y,Y,N,N,N,N,중랑구,37.5890734,127.0802447
430,(주)태영 구도일주유소 한인,서울 중랑구 망우로 170 (상봉동),S-OIL,1635,1535,Y,Y,N,Y,N,N,중랑구,37.5924655,127.071908
431,(주)기지에너지,서울 중랑구 용마산로 716 (신내동),S-OIL,1639,1539,N,N,N,N,N,N,중랑구,37.6176284,127.0943809
432,신내주유소,서울 중랑구 용마산로 705 (신내동),SK에너지,1652,1553,Y,Y,N,N,N,N,중랑구,37.617125,127.0958962
433,신일셀프주유소,서울 중랑구 상봉로 58 (망우동),SK에너지,1659,1568,Y,Y,N,Y,N,Y,중랑구,37.5909419,127.0938066
434,용마로주유소,서울 중랑구 용마산로 309 (면목동),SK에너지,1678,1558,Y,Y,N,N,N,N,중랑구,37.5798777,127.0921819
435,범아주유소,서울 중랑구 동일로 881 (묵동),S-OIL,1698,1598,N,Y,N,Y,N,N,중랑구,37.6093111,127.0776725
